City,Lat,Lng,Max Temp,Humidity,Cloudiness,Wind Speed,Country,Date
Hobart,-42.8794,147.3294,58.12,50,75,16.11,AU,1628221700
Lüderitz,-26.6481,15.1594,54.05,75,33,0.96,NA,1628221700
Jamestown,42.097,-79.2353,67.59,81,20,2.75,US,1628221701
Bambous Virieux,-20.3428,57.7575,66.22,88,40,4.61,MU,1628221701
Lorengau,-2.0226,147.2712,83.32,79,18,11.16,PG,1628221701
Kuminskiy,58.6667,66.5667,66.83,90,100,5.3,RU,1628221701
Tasiilaq,65.6145,-37.6368,36.23,78,14,4.54,GL,1628221702
Umluj,25.0213,37.2685,87.85,64,1,3.18,SA,1628221702
Luorong,24.4058,109.6086,89.85,66,91,0.6,CN,1628221702
Evensk,61.95,159.2333,58.89,57,67,30.56,RU,1628221703
Hilo,19.7297,-155.09,80.33,82,40,6.91,US,1628221703
Mount Darwin,-16.7725,31.5838,49.15,69,0,1.7,ZW,1628221703
Korla,41.7597,86.1469,89.47,16,100,10.6,CN,1628221704
Saint George,37.1041,-113.5841,100.99,13,1,1.01,US,1628221508
Karratha,-20.7377,116.8463,77.68,25,21,25.3,AU,1628221704
Kasongo,-4.45,26.6667,75.69,49,62,3.74,CD,1628221704
Lyubech,51.7026,30.6569,65.19,88,100,11.95,UA,1628221705
Gorontalo,0.5412,123.0595,87.39,65,88,8.41,ID,1628221705
Labuhan,-6.8844,112.2051,87.96,57,85,11.72,ID,1628221705
Yellowknife,62.456,-114.3525,58.28,58,20,5.75,CA,1628221706
Atuona,-9.8,-139.0333,78.03,75,27,14.38,PF,1628221706
Rikitea,-23.1203,-134.9692,74.16,75,10,14.5,PF,1628221706
Vaini,-21.2,-175.2,77.16,78,20,13.8,TO,1628221707
Kargasok,59.0556,80.8572,70.74,68,36,4.09,RU,1628221707
Puerto Ayora,-0.7393,-90.3518,71.55,92,68,7.0,EC,1628221707
Albany,42.6001,-73.9662,66.88,91,4,3.58,US,1628221707
Progreso,21.2833,-89.6667,81.81,76,3,15.97,MX,1628221708
Saint-Pierre,-21.3393,55.4781,67.64,64,40,4.61,RE,1628221708
Thompson,55.7435,-97.8558,53.76,71,90,3.44,CA,1628221508
Tevaitoa,-16.7833,-151.5,78.69,71,66,5.88,PF,1628221708
San Patricio,28.017,-97.5169,82.83,75,100,6.35,US,1628221709
Carnarvon,-24.8667,113.6333,75.27,31,75,16.11,AU,1628221698
Bilibino,68.0546,166.4372,72.18,43,9,8.12,RU,1628221709
Chiredzi,-21.05,31.6667,54.9,63,0,3.13,ZW,1628221709
Yeppoon,-23.1333,150.7333,73.18,45,97,7.67,AU,1628221710
Cape Town,-33.9258,18.4232,53.11,91,0,1.14,ZA,1628221710
Mataura,-46.1927,168.8643,49.48,82,79,4.34,NZ,1628221710
North Bend,43.4065,-124.2243,64.92,91,1,4.61,US,1628221711
Talnakh,69.4865,88.3972,76.91,49,87,1.61,RU,1628221711
Puri,19.8,85.85,88.32,65,75,6.42,IN,1628221711
Pacasmayo,-7.4006,-79.5714,62.94,89,1,9.17,PE,1628221712
Busselton,-33.65,115.3333,64.04,66,0,14.97,AU,1628221666
Benghazi,32.1167,20.0667,83.46,54,0,2.08,LY,1628221548
Mount Isa,-20.7333,139.5,69.57,21,3,11.5,AU,1628221712
Cabo San Lucas,22.8909,-109.9124,84.51,77,88,3.0,MX,1628221712
Caravelas,-17.7125,-39.2481,70.5,70,100,9.46,BR,1628221713
Yulara,-25.2406,130.9889,62.44,34,0,13.8,AU,1628221713
Anchorage,61.2181,-149.9003,70.75,72,1,8.05,US,1628221508
Livingston,55.9029,-3.5226,58.86,94,75,9.22,GB,1628221401
Ushuaia,-54.8,-68.3,38.86,65,75,17.27,AR,1628221714
Muros,42.7762,-9.0603,64.24,89,97,2.75,ES,1628221714
Nantucket,41.2835,-70.0995,69.03,98,100,12.24,US,1628221714
Bengkulu,-3.8004,102.2655,84.09,66,93,2.98,ID,1628221714
Kuching,1.55,110.3333,88.02,70,40,2.3,MY,1628221715
George Town,5.4112,100.3354,89.53,68,20,2.3,MY,1628221715
Rockland,41.1668,-74.0496,72.23,90,89,3.58,US,1628221715
Severo-Kuril'sk,50.6789,156.125,56.43,62,3,14.61,RU,1628221716
New Norfolk,-42.7826,147.0587,57.76,60,94,8.01,AU,1628221716
Ulaangom,49.9811,92.0667,60.42,72,100,3.31,MN,1628221716
Kapaa,22.0752,-159.319,82.72,75,75,4.0,US,1628221716
Sergeevka,53.88,67.4158,78.35,48,86,7.58,KZ,1628221717
Mar del Plata,-38.0023,-57.5575,55.09,28,90,1.01,AR,1628221500
Pueblo,38.2545,-104.6091,84.78,42,1,5.99,US,1628221452
Chicama,-7.8447,-79.1469,64.38,84,3,4.81,PE,1628221717
Provideniya,64.3833,-173.3,55.51,58,75,13.42,RU,1628221718
Sisimiut,66.9395,-53.6735,44.26,93,100,15.08,GL,1628221718
Ancud,-41.8697,-73.8203,50.23,86,100,12.77,CL,1628221718
Hong Kong,22.2855,114.1577,86.05,99,100,12.48,HK,1628221583
Babu,24.4167,111.5167,91.92,62,95,6.58,CN,1628221719
Tsiroanomandidy,-18.7667,46.0333,56.32,73,54,2.98,MG,1628221720
Norman Wells,65.282,-126.8329,69.84,56,40,5.75,CA,1628221720
Dingle,10.9995,122.6711,89.62,58,82,16.82,PH,1628221721
Nanortalik,60.1432,-45.2371,45.88,96,100,2.06,GL,1628221721
Waipawa,-41.4122,175.5153,50.63,89,97,3.4,NZ,1628221721
Punta Arenas,-53.15,-70.9167,33.91,100,75,21.85,CL,1628221722
Bireun,5.203,96.7009,86.88,51,70,5.17,ID,1628221722
Ust-Tsilma,65.441,52.1498,52.27,91,100,6.38,RU,1628221722
Dois Vizinhos,-25.7336,-53.0572,59.97,70,100,6.15,BR,1628221723
Airai,-8.9266,125.4092,74.3,41,77,5.79,TL,1628221723
Upernavik,72.7868,-56.1549,42.85,67,24,5.61,GL,1628221723
Poum,-20.2333,164.0167,69.73,61,97,24.02,NC,1628221723
Bluff,-46.6,168.3333,49.8,75,42,16.13,NZ,1628221724
Mayor Pablo Lagerenza,-19.9309,-60.7718,64.27,41,0,4.27,PY,1628221724
Banda Aceh,5.5577,95.3222,87.55,59,38,14.65,ID,1628221601
Meulaboh,4.1363,96.1285,85.64,60,93,3.85,ID,1628221724
Jining,35.405,116.5814,89.13,61,33,4.0,CN,1628221725
Tuktoyaktuk,69.4541,-133.0374,42.8,93,90,19.57,CA,1628221725
Qaqortoq,60.7167,-46.0333,46.9,96,100,3.29,GL,1628221725
Princeton,25.5384,-80.4089,85.01,85,40,0.0,US,1628221726
Lompoc,34.6391,-120.4579,70.38,83,90,13.8,US,1628221726
Kavieng,-2.5744,150.7967,83.64,72,50,13.13,PG,1628221726
Mitsamiouli,-11.3847,43.2844,75.0,70,18,8.3,KM,1628221726
Fortuna,40.5982,-124.1573,62.92,71,90,1.99,US,1628221727
Werda,-25.2667,23.2833,52.86,42,3,3.42,BW,1628221727
Port Augusta,-32.5,137.7667,59.7,45,98,6.71,AU,1628221727
Torbay,47.6666,-52.7314,66.67,78,40,17.27,CA,1628221728
Bathsheba,13.2167,-59.5167,81.21,78,40,18.41,BB,1628221728
Constitución,-35.3333,-72.4167,50.29,89,100,2.66,CL,1628221728
Saldanha,-33.0117,17.9442,42.85,84,0,3.6,ZA,1628221728
Police,53.5521,14.5718,59.95,95,100,4.21,PL,1628221729
Barrow,71.2906,-156.7887,37.42,84,90,20.71,US,1628221729
Pacific Grove,36.6177,-121.9166,66.63,89,90,1.01,US,1628221729
Cabo Rojo,18.0866,-67.1457,80.78,86,9,5.7,PR,1628221730
Boké,10.9409,-14.2967,73.56,97,100,3.94,GN,1628221730
Port Blair,11.6667,92.75,83.25,82,100,19.91,IN,1628221730
Notsé,6.95,1.1667,69.82,96,77,4.27,TG,1628221731
San Mateo Ixtatán,15.8319,-91.4781,54.95,99,100,1.95,GT,1628221731
Hasaki,35.7333,140.8333,95.29,71,11,8.75,JP,1628221731
Mahébourg,-20.4081,57.7,66.25,88,40,4.61,MU,1628221731
Nemuro,43.3236,145.575,75.63,94,86,7.61,JP,1628221732
Mehamn,71.0357,27.8492,51.75,93,0,3.44,NO,1628221732
Kungurtug,50.5994,97.5228,62.51,79,94,2.89,RU,1628221732
Bredasdorp,-34.5322,20.0403,54.28,93,93,4.61,ZA,1628221733
Hirara,24.8,125.2833,89.87,79,75,19.57,JP,1628221733
Panabá,21.2833,-88.2667,79.32,74,32,9.24,MX,1628221733
Bundaberg,-24.85,152.35,73.69,33,83,5.75,AU,1628221733
Broome,42.2506,-75.833,65.68,82,0,1.81,US,1628221734
Mount Gambier,-37.8333,140.7667,53.51,87,90,12.66,AU,1628221734
Bethel,41.3712,-73.414,69.89,90,1,3.44,US,1628221734
Shuangcheng,45.35,126.2833,78.48,61,100,7.9,CN,1628221735
Corvallis,44.5646,-123.262,72.28,76,1,1.99,US,1628221735
Taoudenni,22.6783,-3.9836,97.57,25,20,15.46,ML,1628221735
Tiznit Province,29.5833,-9.5,68.49,76,0,2.17,MA,1628221736
Chokurdakh,70.6333,147.9167,45.37,70,99,10.71,RU,1628221673
Hermanus,-34.4187,19.2345,54.81,83,24,8.57,ZA,1628221736
Marsá Maţrūḩ,31.3525,27.2453,82.6,78,0,11.5,EG,1628221736
Klyuchi,52.2667,79.1667,73.62,49,16,7.49,RU,1628221737
Saint Paul Harbor,57.79,-152.4072,56.71,88,90,5.75,US,1628221737
Port Alfred,-33.5906,26.891,59.85,88,4,15.12,ZA,1628221737
Ürümqi,43.801,87.6005,83.35,23,0,4.47,CN,1628221636
Cherskiy,68.75,161.3,60.42,57,37,8.84,RU,1628221738
La Libertad,-2.2333,-80.9,69.62,82,78,9.48,EC,1628221738
Valparaíso,-33.0393,-71.6273,52.48,85,0,5.75,CL,1628221738
Olafsvik,64.8945,-23.7142,53.15,84,23,5.21,IS,1628221738
Luwuk,-0.9516,122.7875,83.08,80,100,7.52,ID,1628221739
Akşehir,38.3575,31.4164,73.4,39,0,0.6,TR,1628221739
Córdoba,-31.4135,-64.1811,60.6,58,0,3.0,AR,1628221702
Northam,51.0333,-4.2167,61.66,96,82,20.58,GB,1628221739
Bondo,3.8146,23.6866,67.71,99,100,1.68,CD,1628221740
Santarém,-2.4431,-54.7083,75.33,100,0,3.44,BR,1628221740
Port Elizabeth,-33.918,25.5701,59.29,94,90,13.8,ZA,1628221740
Kiboga,0.9161,31.7742,64.67,71,83,0.54,UG,1628221741
Laguna,38.421,-121.4238,82.9,54,1,1.99,US,1628221741
Kaitangata,-46.2817,169.8464,54.93,58,21,4.59,NZ,1628221741
Udachny,66.4167,112.4,64.58,31,3,21.5,RU,1628221742
Santa Barbara,34.7333,-120.0343,65.34,84,0,4.47,US,1628221713
Comodoro Rivadavia,-45.8667,-67.5,55.26,35,0,16.11,AR,1628221742
Lebu,-37.6167,-73.65,50.14,89,100,8.39,CL,1628221742
Khovd,48.0056,91.6419,70.0,24,3,6.85,MN,1628221655
Behshahr,36.6923,53.5526,75.15,39,0,3.65,IR,1628221743
Ribeira Grande,38.5167,-28.7,73.18,93,57,16.58,PT,1628221743
Lavrentiya,65.5833,-171.0,49.95,96,100,2.98,RU,1628221743
Kaeo,-35.1,173.7833,55.85,88,52,14.09,NZ,1628221743
Saint-Philippe,-21.3585,55.7679,67.55,71,31,11.05,RE,1628221744
Contai,21.7786,87.7536,89.89,64,36,1.1,IN,1628221744
Holland,42.7875,-86.1089,72.05,62,1,4.61,US,1628221744
Beloha,-25.1667,45.05,61.63,59,0,4.61,MG,1628221745
Cidreira,-30.1811,-50.2056,60.55,94,100,15.52,BR,1628221745
Solnechnyy,50.7214,136.6319,58.91,99,100,2.95,RU,1628221745
Dikson,73.5069,80.5464,47.01,95,24,5.12,RU,1628221746
Vila Velha,-20.3297,-40.2925,62.55,94,40,2.3,BR,1628221746
Khatanga,71.9667,102.5,72.48,29,3,13.4,RU,1628221746
Butaritari,3.0707,172.7902,83.17,65,9,11.27,KI,1628221746
Badamdar,40.3394,49.8039,78.75,58,0,11.1,AZ,1628221747
Tazovsky,67.4667,78.7,67.64,60,37,5.46,RU,1628221747
Port Lincoln,-34.7333,135.8667,58.62,62,96,11.88,AU,1628221748
Juneau,58.3019,-134.4197,66.2,85,75,4.61,US,1628221691
Aykhal,66.0,111.5,63.7,30,6,21.54,RU,1628221748
Piaçabuçu,-10.4056,-36.4344,71.82,86,17,8.72,BR,1628221748
Coahuayana Viejo,18.7333,-103.6833,77.45,91,100,2.26,MX,1628221749
Avarua,-21.2078,-159.775,77.05,57,75,2.3,CK,1628221749
Tchaourou,8.8865,2.5975,69.51,98,98,3.31,BJ,1628221749
Mashhad,36.297,59.6062,86.14,28,0,9.22,IR,1628221750
San Cristobal,7.7669,-72.225,66.15,98,91,5.01,VE,1628221750
Kruisfontein,-34.0033,24.7314,55.89,90,40,6.17,ZA,1628221750
Coyhaique,-45.5752,-72.0662,40.95,87,75,3.44,CL,1628221750
Hays,30.0502,-98.0336,77.95,89,92,5.91,US,1628221751
Novy Urengoy,66.0833,76.6333,74.62,50,9,4.45,RU,1628221751
Sohag,26.557,31.6948,79.09,16,0,1.12,EG,1628221751
Itarema,-2.9248,-39.9167,77.68,78,34,13.85,BR,1628221752
Brae,60.3964,-1.353,57.11,95,67,15.01,GB,1628221658
Izhma,65.0083,53.9113,54.37,77,100,6.38,RU,1628221752
Chui,-33.6971,-53.4616,55.87,96,32,9.13,UY,1628221752
Krasnoarmiys'k,48.282,37.1758,72.0,60,43,5.61,UA,1628221753
Port Shepstone,-30.7414,30.455,61.9,74,1,7.02,ZA,1628221753
Bridgetown,13.1,-59.6167,81.09,78,40,18.41,BB,1628221753
Yadrin,55.9405,46.2062,64.76,50,81,4.72,RU,1628221753
Taltal,-25.4,-70.4833,58.44,69,11,3.29,CL,1628221664
Castro,-24.7911,-50.0119,48.25,94,100,5.61,BR,1628221470
Vana-Vigala,58.7806,24.2522,50.85,70,0,5.23,EE,1628221754
Plungė,55.9114,21.8442,54.19,79,99,13.38,LT,1628221754
Fichē,9.8,38.7333,48.47,85,79,0.56,ET,1628221755
Maniitsoq,65.4167,-52.9,43.0,93,90,19.71,GL,1628221755
Aksarka,66.5606,67.7975,71.85,57,6,9.19,RU,1628221755
Sitka,57.0531,-135.33,62.49,72,90,6.91,US,1628221755
Yovon,38.3141,69.0378,85.68,15,2,4.74,TJ,1628221756
Hashtgerd,35.9642,50.6858,77.56,35,69,2.89,IR,1628221756
Tarauacá,-8.1614,-70.7656,71.85,54,8,1.21,BR,1628221756
Cocobeach,1.0002,9.5823,76.93,85,24,5.46,GA,1628221757
Alofi,-19.0595,-169.9187,78.69,69,40,5.75,NU,1628221757
Esperance,-33.8667,121.9,64.24,53,0,12.66,AU,1628221757
Fairbanks,64.8378,-147.7164,82.36,45,1,1.01,US,1628221531
College,64.8569,-147.8028,82.35,45,75,8.05,US,1628221758
Ixtapa,20.7,-105.2,75.22,98,100,3.22,MX,1628221758
Makakilo City,21.3469,-158.0858,82.72,62,75,18.41,US,1628221758
Lithakia,37.7167,20.8333,80.58,78,0,0.0,GR,1628221758
Gurupi,-11.7292,-49.0686,73.44,34,52,6.02,BR,1628221759
Paraná,-31.732,-60.5238,58.57,86,68,7.27,AR,1628221759
Ust-Nera,64.5667,143.2,59.67,42,99,6.69,RU,1628221759
Ilava,48.9977,18.2353,62.55,86,100,3.2,SK,1628221760
Thunder Bay,48.4001,-89.3168,69.78,88,90,5.75,CA,1628221497
Östersund,63.1792,14.6357,55.85,76,97,8.05,SE,1628221760
Coxim,-18.5067,-54.76,68.22,29,51,3.56,BR,1628221760
Tolaga Bay,-38.3667,178.3,59.61,62,52,2.93,NZ,1628221760
Tobol,52.6844,62.5794,76.44,55,63,8.21,KZ,1628221761
Sorrento,40.626,14.3744,75.25,73,90,11.65,IT,1628221753
Sinnamary,5.3833,-52.95,75.69,87,68,1.99,GF,1628221761
Dicabisagan,17.0818,122.4157,94.06,53,83,13.71,PH,1628221761
Anshun,26.25,105.9333,82.56,58,53,2.77,CN,1628221762
Beringovskiy,63.05,179.3167,49.84,83,98,7.31,RU,1628221762
Davila,18.4726,120.5763,85.98,88,100,29.97,PH,1628221762
Hachinohe,40.5,141.5,88.83,64,24,8.9,JP,1628221763
Kargopol',61.5071,38.9456,56.79,67,100,4.7,RU,1628221763
Le Vauclin,14.5452,-60.8388,81.84,89,75,8.05,MQ,1628221763
Kenai,60.5544,-151.2583,64.49,75,75,6.91,US,1628221494
Onokhoy,51.932,108.0747,73.15,39,28,6.15,RU,1628221764
Omboué,-1.5746,9.2618,73.18,89,3,4.83,GA,1628221764
Catalina,32.5056,-110.9211,94.86,40,19,1.99,US,1628221467
Chulym,55.0997,80.9572,69.37,64,65,13.47,RU,1628221764
Uusikaupunki,60.8004,21.4084,46.92,80,7,5.14,FI,1628221764
Gizo Government Station,-8.103,156.8419,82.74,68,68,16.06,SB,1628221765
Kalemie,-5.9475,29.1947,72.34,58,66,2.15,CD,1628221765
Majene,-3.5403,118.9707,84.09,67,100,8.99,ID,1628221765
Columbia,34.0007,-81.0348,74.75,86,40,1.01,US,1628221500
Jiamusi,46.8333,130.35,86.38,41,95,16.11,CN,1628221766
Pindi Bhattian,31.8978,73.273,95.97,46,9,9.91,PK,1628221766
Staraya Russa,57.9944,31.3608,55.2,97,100,6.62,RU,1628221766
Causapscal,48.3542,-67.227,64.94,93,100,4.27,CA,1628221767
Srednekolymsk,67.45,153.6833,50.38,72,100,11.01,RU,1628221767
Tiksi,71.6872,128.8694,41.72,87,99,17.98,RU,1628221767
Baruun-Urt,46.6806,113.2792,78.03,36,3,10.98,MN,1628221767
Roald,62.5833,6.1333,60.33,88,92,9.22,NO,1628221768
Yar-Sale,66.8333,70.8333,66.69,63,100,7.0,RU,1628221768
Faanui,-16.4833,-151.75,78.8,73,94,6.64,PF,1628221768
Hongjiang,27.11,109.9956,94.84,47,56,6.17,CN,1628221769
Ilulissat,69.2167,-51.1,50.02,66,75,12.66,GL,1628221769
Yendi,9.4427,-0.0099,71.98,95,99,4.59,GH,1628221769
Lensk,60.7253,114.9278,75.43,46,100,6.91,RU,1628221770
Vestmannaeyjar,63.4427,-20.2734,53.92,83,46,1.81,IS,1628221548
Hofn,64.2539,-15.2082,52.66,86,92,1.52,IS,1628221770
Bonavista,48.6499,-53.1147,65.12,77,99,13.76,CA,1628221770
Claveria,18.6074,121.0832,88.92,65,99,15.61,PH,1628221771
Iqaluit,63.7506,-68.5145,42.53,75,90,8.01,CA,1628221771
Richards Bay,-28.783,32.0377,59.0,91,0,8.14,ZA,1628221771
Mareeba,-17.0,145.4333,74.44,51,82,5.7,AU,1628221772
Estância,-11.2683,-37.4383,76.48,95,17,2.44,BR,1628221611
Sekoma,-24.4,23.8833,52.02,46,61,5.06,BW,1628221772
Hambantota,6.1241,81.1185,84.54,84,20,11.5,LK,1628221772
Laas,46.6166,10.7002,54.48,83,90,2.68,IT,1628221773
Souillac,-20.5167,57.5167,66.36,88,40,4.61,MU,1628221773
Freeport,40.6576,-73.5832,73.76,90,1,4.0,US,1628221773
Anloga,5.7947,0.8973,77.22,89,69,10.96,GH,1628221773
San Quintín,30.4833,-115.95,67.62,86,9,8.1,MX,1628221774
Manono,-7.3,27.4167,73.56,34,47,4.47,CD,1628221774
Ust'-Omchug,61.15,149.6333,41.79,88,100,10.94,RU,1628221774
Portland,45.5234,-122.6762,77.9,66,1,3.0,US,1628221380
Arrondissement du Havre,49.5833,0.3333,61.45,88,90,19.57,FR,1628221775
Avera,33.194,-82.5271,75.07,83,6,5.5,US,1628221775
Gouré,13.9835,10.2704,80.02,63,35,14.92,NE,1628221775
Banganapalle,15.3167,78.2333,86.02,55,89,19.46,IN,1628221776
Härnösand,62.6323,17.9379,60.8,83,97,5.7,SE,1628221776
Yumen,40.2833,97.2,87.3,11,22,8.5,CN,1628221776
Aldan,58.6031,125.3894,68.76,61,100,10.87,RU,1628221776
Arlit,18.7369,7.3853,89.19,40,6,6.98,NE,1628221777
Turukhansk,65.8167,87.9833,74.59,39,73,14.54,RU,1628221777
Verkhnevilyuysk,63.4453,120.3167,76.12,26,0,7.76,RU,1628221778
Borzna,51.2546,32.4269,68.07,66,97,11.74,UA,1628221778
Lethem,3.3803,-59.7968,72.84,92,72,2.93,GY,1628221778
Vao,-22.6667,167.4833,68.32,59,82,18.99,NC,1628221779
Grindavik,63.8424,-22.4338,53.55,100,75,3.44,IS,1628221779
Narni,42.5171,12.5231,66.54,78,97,3.06,IT,1628221779
Warkworth,-36.4,174.6667,60.03,85,86,13.98,NZ,1628221779
Astara,38.5,48.6667,65.1,31,0,2.19,AZ,1628221780
Sola,-13.8833,167.55,77.67,89,75,5.75,VU,1628221780
Ponta do Sol,32.6667,-17.1,75.0,83,45,3.87,PT,1628221780
Kirkuk,35.4681,44.3922,96.84,19,9,14.36,IQ,1628221781
Oktyabr'skiy,54.4815,53.471,66.51,67,0,6.29,RU,1628221781
Kudahuvadhoo,2.6708,72.8944,81.77,75,100,10.45,MV,1628221781
Dondo,-19.6094,34.7431,60.31,96,0,4.09,MZ,1628221782
Calella,41.618,2.6678,77.0,96,8,7.74,ES,1628221782
Dudinka,69.4058,86.1778,78.3,48,37,4.54,RU,1628221782
Galesong,-5.3166,119.3661,86.02,64,67,5.26,ID,1628221782
Viedma,-40.8135,-62.9967,58.14,43,38,14.85,AR,1628221783
Springbok,-29.6643,17.8865,45.23,44,0,2.46,ZA,1628221783
Sarh,9.1429,18.3923,76.91,83,40,6.91,TD,1628221783
Ponta Delgada,37.7333,-25.6667,72.32,100,75,11.5,PT,1628221784
Singapore,1.2897,103.8501,87.94,69,75,8.05,SG,1628221741
El Estor,15.5333,-89.35,75.29,95,96,1.95,GT,1628221784
Nicoya,10.1483,-85.452,74.75,93,100,0.51,CR,1628221784
Pemangkat,1.1667,108.9667,86.61,59,99,4.21,ID,1628221784
Pāvilosta,56.8879,21.1859,53.55,81,69,10.63,LV,1628221785
Bloemfontein,-29.1211,26.214,38.68,65,0,4.61,ZA,1628221644
El Cobre,20.0489,-75.9469,80.04,83,20,4.61,CU,1628221785
Entre Rios,-11.9419,-38.0844,64.81,98,74,3.24,BR,1628221786
Trincomalee,8.5711,81.2335,86.36,63,95,18.88,LK,1628221786
Arkansas City,37.062,-97.0384,79.65,73,1,9.22,US,1628221786
Saskylakh,71.9167,114.0833,62.28,37,9,14.72,RU,1628221786
Barra de Tecoanapa,16.5167,-98.75,77.99,88,100,4.99,MX,1628221787
Prodromos,34.9496,32.8323,69.06,25,0,1.19,CY,1628221787
Palauig,15.435,119.9045,82.72,85,100,17.18,PH,1628221787
Goderich,43.7501,-81.7165,70.12,68,7,6.91,CA,1628221788
Luziânia,-16.2525,-47.9503,64.09,54,100,4.61,BR,1628221788
Sabang,5.8933,95.3214,83.59,73,77,20.78,ID,1628221788
Altamira,-3.2033,-52.2064,74.8,70,97,1.68,BR,1628221789
Puerto Carreño,6.189,-67.4859,73.22,92,56,2.77,CO,1628221789
Bubaque,11.2833,-15.8333,79.2,80,100,22.37,GW,1628221789
Bar Harbor,44.3876,-68.2039,66.69,93,90,15.99,US,1628221789
Dunedin,-45.8742,170.5036,50.54,64,1,1.7,NZ,1628221661
Bereket,39.2446,55.5154,89.19,28,4,6.6,TM,1628221790
Berlevåg,70.8578,29.0864,51.8,81,97,7.58,NO,1628221790
Boulder,40.0833,-105.3505,73.29,41,1,5.99,US,1628221448
Xining,36.6167,101.7667,57.47,89,100,4.09,CN,1628221790
São Filipe,14.8961,-24.4956,77.49,92,93,8.25,CV,1628221791
Nara,34.6851,135.8049,92.52,67,100,11.65,JP,1628221791
Nikolskoye,59.7035,30.7861,59.79,81,99,3.11,RU,1628221791
Tura,25.5198,90.2201,82.83,84,100,6.02,IN,1628221792
Tanout,14.9709,8.8879,82.56,58,41,17.83,NE,1628221792
Onega,63.9061,38.1404,52.77,66,4,3.91,RU,1628221792
Oranjemund,-28.55,16.4333,53.82,71,0,1.52,NA,1628221792
Flinders,-34.5833,150.8552,72.18,45,0,5.01,AU,1628221793
Camacha,33.0833,-16.3333,71.53,94,75,10.36,PT,1628221793
Timrå,62.487,17.3257,60.48,94,90,3.44,SE,1628221793
Krāslava,55.8951,27.168,54.88,86,100,10.65,LV,1628221794
Shimoda,34.6667,138.95,86.36,73,51,10.92,JP,1628221794
Cabra,37.4725,-4.4421,76.89,37,0,1.72,ES,1628221794
Dryden,49.7833,-92.7503,59.29,94,90,8.05,CA,1628221625
Kieta,-6.2167,155.6333,83.8,74,96,9.48,PG,1628221795
Vila Franca do Campo,37.7167,-25.4333,72.01,92,55,9.04,PT,1628221795
Fonte Boa,-2.4959,-66.2662,70.93,95,63,3.06,BR,1628221795
Tegal,-6.8694,109.1402,86.79,55,65,10.07,ID,1628221796
Chapais,49.7834,-74.8492,62.38,97,96,1.54,CA,1628221796
Senanga,-16.1167,23.2667,51.1,39,0,4.59,ZM,1628221796
Buala,-8.145,159.5921,82.58,66,59,8.7,SB,1628221796
Pareora,-44.4871,171.2132,51.19,74,67,3.94,NZ,1628221797
Miramar,25.9873,-80.2323,85.01,81,1,0.0,US,1628221797
Bagdarin,54.4333,113.6,71.94,48,17,2.66,RU,1628221797
Port Hardy,50.6996,-127.4199,60.98,72,40,10.36,CA,1628221507
Kargil,34.5667,76.1,59.4,33,2,3.58,IN,1628221798
Mogoytuy,51.2833,114.9167,75.79,45,0,7.16,RU,1628221798
Kokuy,52.2037,117.5529,73.31,61,68,5.57,RU,1628221798
Zyryanka,65.75,150.85,52.65,61,100,13.18,RU,1628221799
Acapulco de Juárez,16.8634,-99.8901,79.77,86,100,7.47,MX,1628221774
Thinadhoo,0.5333,72.9333,82.53,70,100,10.78,MV,1628221799
Abalak,58.1286,68.5944,61.77,94,100,6.67,RU,1628221799
Røros,62.5747,11.3842,39.04,93,72,4.61,NO,1628221800
Khandyga,62.6667,135.6,81.05,29,6,3.58,RU,1628221800
Eyemouth,55.8713,-2.0901,59.85,97,97,5.01,GB,1628221800
Hithadhoo,-0.6,73.0833,82.87,69,97,7.58,MV,1628221800
Rāmānuj Ganj,23.8,83.7,85.44,69,99,3.11,IN,1628221801
Malabon,15.6361,119.9379,82.31,88,100,14.88,PH,1628221801
Kanniyākumāri,8.0833,77.5667,82.99,69,100,21.41,IN,1628221801
Okha,53.5739,142.9478,57.2,83,100,13.98,RU,1628221802
Morden,49.1919,-98.1014,62.46,59,0,2.3,CA,1628221692
Morondava,-20.2833,44.2833,69.55,56,70,8.1,MG,1628221803
Türkan,40.3639,50.215,80.78,83,0,6.91,AZ,1628221803
Parfen'yevo,58.484,43.4088,58.5,64,95,6.13,RU,1628221804
Inuvik,68.3499,-133.7218,54.36,79,90,12.66,CA,1628221804
Saint-Augustin,51.226,-58.6502,61.56,92,100,14.45,CA,1628221804
Kapoeta,4.7717,33.5903,77.05,48,99,14.18,SS,1628221805
Alekseyevskaya,50.2896,42.1845,74.37,39,74,9.84,RU,1628221805
Redmond,47.674,-122.1215,73.62,73,84,5.99,US,1628221805
Tuatapere,-46.1333,167.6833,49.82,75,44,6.6,NZ,1628221805
Tongliao,43.6125,122.2653,84.61,40,14,6.82,CN,1628221806
Sauda,59.6506,6.3542,58.68,77,34,7.4,NO,1628221806
Padang,-0.9492,100.3543,87.85,60,74,4.34,ID,1628221806
Tautira,-17.7333,-149.15,80.62,72,35,4.85,PF,1628221807
Bonthe,7.5264,-12.505,76.28,81,100,11.18,SL,1628221807
Maningrida,-12.0667,134.2667,86.25,28,100,9.48,AU,1628221807
Pevek,69.7008,170.3133,39.74,92,100,5.01,RU,1628221807
Pangnirtung,66.1451,-65.7125,39.9,98,100,7.94,CA,1628221808
Phichit,16.25,100.4167,92.1,61,88,6.49,TH,1628221808
Sur,22.5667,59.5289,93.87,48,0,3.76,OM,1628221808
Nagua,19.3832,-69.8474,79.45,91,61,5.53,DO,1628221511
Isangel,-19.55,169.2667,69.91,94,90,9.22,VU,1628221809
Baijiantan,45.6333,85.1833,84.61,26,3,4.94,CN,1628221809
Goose Creek,32.981,-80.0326,74.89,91,90,1.01,US,1628221809
Saint-Leu,-21.15,55.2833,67.03,67,63,2.89,RE,1628221810
Nova Granada,-20.5339,-49.3142,68.25,52,85,5.37,BR,1628221810
Sibu,2.3,111.8167,84.51,79,20,3.44,MY,1628221810
Wahpeton,46.2652,-96.6059,68.02,83,40,8.05,US,1628221565
Chifeng,42.2683,118.9636,81.07,38,81,4.18,CN,1628221811
Chumikan,54.7183,135.315,52.66,97,100,21.07,RU,1628221811
Prado,-17.3411,-39.2208,71.11,69,97,11.1,BR,1628221811
Tangshan,39.6333,118.1833,82.38,67,1,5.17,CN,1628221811
‘Ewa Beach,21.3156,-158.0072,84.15,61,40,20.71,US,1628221812
Tateyama,34.9833,139.8667,91.42,72,62,7.09,JP,1628221812
Ust'-Barguzin,53.45,108.9833,65.44,65,47,3.69,RU,1628221812
Sangar,63.9242,127.4739,73.62,27,0,9.17,RU,1628221813
Jutaí,-5.1833,-68.9,72.37,65,100,2.71,BR,1628221813
Nombre de Dios,23.85,-104.2333,63.81,80,93,1.5,MX,1628221813
Pisco,-13.7,-76.2167,61.02,88,75,14.97,PE,1628221814
Kalāleh,37.3807,55.4916,78.4,65,0,0.0,IR,1628221814
Geraldton,-28.7667,114.6,69.13,52,0,20.71,AU,1628221695
Pauini,-7.7136,-66.9764,73.47,47,64,1.19,BR,1628221814
Mossamedes,-15.1961,12.1522,64.99,83,0,2.08,AO,1628221815
Henties Bay,-22.116,14.2845,52.86,78,7,3.56,NA,1628221815
Orlik,52.5178,99.825,65.3,68,100,4.0,RU,1628221815
Coos Bay,43.3665,-124.2179,64.99,91,1,4.61,US,1628221648
Herat Province,34.5,62.0,77.59,17,0,19.95,AF,1628221816
Salalah,17.0151,54.0924,75.34,96,100,6.02,OM,1628221816
Cabedelo,-6.9811,-34.8339,72.27,84,1,15.01,BR,1628221816
Salamanca,40.8333,-6.0,55.18,85,0,3.49,ES,1628221817
Rockhampton,-23.3833,150.5,73.29,28,99,3.44,AU,1628221817
Kīhei,20.785,-156.4656,83.46,79,40,20.71,US,1628221793
Hobyo,5.3505,48.5268,76.41,81,69,24.18,SO,1628221817
Acaraú,-2.8856,-40.12,77.79,77,25,14.27,BR,1628221813
Kahului,20.8947,-156.47,83.46,78,40,20.71,US,1628221818
Suntar,62.1444,117.6319,77.54,29,100,8.23,RU,1628221818
Sambava,-14.2667,50.1667,68.81,82,52,11.5,MG,1628221818
Kupang,-10.1667,123.5833,86.58,54,40,20.71,ID,1628221818
Gabú,12.2833,-14.2167,73.26,94,97,8.41,GW,1628221819
Port-Cartier,50.0334,-66.8654,58.75,91,96,2.73,CA,1628221819
Rio Brilhante,-21.8019,-54.5464,65.88,49,100,3.96,BR,1628221819
Beian,63.6559,9.5683,61.02,94,40,10.36,NO,1628221820
Quimperlé,47.8667,-3.55,62.94,88,75,20.71,FR,1628221820
Kapit,2.0167,112.9333,93.76,45,52,0.4,MY,1628221820
Visby,57.6409,18.296,62.94,93,7,3.44,SE,1628221820
Trairi,-3.2778,-39.2689,76.17,80,37,9.24,BR,1628221818
Foster City,37.5586,-122.2711,68.34,82,1,1.01,US,1628221615
La Paz,-16.5,-68.15,37.38,69,40,2.3,BO,1628221821
Howard Springs,-12.497,131.047,85.82,23,97,11.03,AU,1628221821
Praia da Vitória,38.7333,-27.0667,73.76,73,75,11.36,PT,1628221822
Okhotsk,59.3833,143.3,66.72,48,0,4.72,RU,1628221822
Poya,-21.35,165.15,71.06,49,67,9.13,NC,1628221822
Skellefteå,64.7507,20.9528,50.0,66,64,2.3,SE,1628221822
Soc Trang,9.6033,105.98,85.96,53,100,12.06,VN,1628221823
Riyadh,24.6877,46.7219,84.34,11,1,9.22,SA,1628221718
Kadirli,37.3739,36.0961,79.02,60,44,0.96,TR,1628221823
Douglas,41.3,-96.167,78.89,82,1,0.0,US,1628221823
Altay,47.8667,88.1167,70.11,41,15,8.63,CN,1628221824
Pahrump,36.2083,-115.9839,101.1,9,0,4.0,US,1628221824
Nome,64.5011,-165.4064,60.17,82,90,21.85,US,1628221824
Coleraine,55.1333,-6.6667,59.04,97,100,5.41,GB,1628221825
Yemel'yanovo,56.1681,92.6767,74.21,68,0,4.47,RU,1628221825
Åmot,59.5714,7.9877,47.77,87,54,2.84,NO,1628221825
Kiri Buru,22.0833,85.35,83.98,71,40,4.29,IN,1628221825
Zeya,53.75,127.2667,62.47,97,100,2.28,RU,1628221826
Puerto Baquerizo Moreno,-0.9,-89.6,70.56,88,70,11.81,EC,1628221826
Sakakah,29.9697,40.2064,85.57,18,0,5.03,SA,1628221826
Salinópolis,-0.6136,-47.3561,77.61,86,2,10.31,BR,1628221827
Davidson,36.1501,-86.7833,75.65,67,20,3.0,US,1628221827
East London,-33.0153,27.9116,58.14,82,0,9.22,ZA,1628221827
Mariehamn,60.0973,19.9348,44.46,100,75,4.61,AX,1628221827
Mucurapo,10.6667,-61.5333,79.97,85,1,5.79,TT,1628221828
Darhan,49.4867,105.9228,75.79,54,65,6.44,MN,1628221828
Narsaq,60.9167,-46.05,47.23,93,100,1.61,GL,1628221828
Daru,-9.0763,143.2092,80.24,66,89,13.31,PG,1628221829
Darnah,32.767,22.6367,85.73,40,0,11.68,LY,1628221829
Cusco,-13.5183,-71.9781,45.7,72,1,2.89,PE,1628221829
Luba,3.4568,8.5547,75.09,84,92,2.62,GQ,1628221830
Āsbe Teferī,9.0833,40.8667,59.97,81,90,6.71,ET,1628221830
Juan de Ayolas,-27.4,-56.9,59.38,69,81,6.06,PY,1628221830
Najrān,17.4924,44.1277,81.25,38,46,5.21,SA,1628221831
Guerrero Negro,27.9769,-114.0611,71.85,82,3,11.77,MX,1628221831
Mâncio Lima,-7.6142,-72.8958,71.67,94,0,0.0,BR,1628221831
Naryan-Mar,67.6713,53.087,51.39,82,100,10.0,RU,1628221832
Kalmunai,7.4167,81.8167,86.74,58,100,3.94,LK,1628221832
Kazygurt,41.7589,69.3864,84.13,21,2,6.8,KZ,1628221832
Nānākuli,21.3906,-158.1547,84.15,61,75,18.41,US,1628221833
Port Moresby,-9.4431,147.1797,83.62,58,75,11.5,PG,1628221833
Asău,46.4333,26.4,61.95,94,100,5.61,RO,1628221833
Apodi,-5.6642,-37.7989,76.14,64,28,14.0,BR,1628221833
Broken Hill,-31.95,141.4333,56.91,58,75,8.05,AU,1628221834
Kismayo,-0.3582,42.5454,75.97,76,20,15.28,SO,1628221834
Sampit,-2.5333,112.95,88.63,58,92,4.52,ID,1628221834
Cabuyaro,4.2817,-72.794,70.11,94,78,3.11,CO,1628221835
Cordele,31.9635,-83.7824,74.75,83,1,3.44,US,1628221818
Lamar,33.6668,-95.5836,78.46,76,1,5.75,US,1628221835
Osakarovka,50.565,72.5692,74.26,36,33,3.96,KZ,1628221835
Samarai,-10.6167,150.6667,77.18,76,98,13.6,PG,1628221836
Cockburn Town,21.4612,-71.1419,82.81,79,22,20.13,TC,1628221836
Bagé,-31.3314,-54.1069,56.8,94,20,12.66,BR,1628221836
Olavarría,-36.8927,-60.3225,48.15,94,0,9.15,AR,1628221836
Xunchang,28.4543,104.715,89.56,62,27,2.35,CN,1628221837
Atyrau,47.1167,51.8833,78.82,36,0,15.66,KZ,1628221766
Larsnes,62.2028,5.5773,60.01,83,100,4.9,NO,1628221837
Longyearbyen,78.2186,15.6401,42.08,76,97,5.37,SJ,1628221837
Hendersonville,36.3048,-86.62,75.74,75,96,4.27,US,1628221807
Lewisporte,49.2499,-55.0482,68.38,69,100,11.16,CA,1628221838
Snezhnogorsk,69.1933,33.2531,53.38,79,95,6.02,RU,1628221838
Ouésso,1.6136,16.0517,70.45,92,39,1.63,CG,1628221838
Gârbova,45.8667,23.7333,60.03,88,91,10.8,RO,1628221839
Lata,40.1629,-8.3327,63.81,95,76,2.46,PT,1628221839
Eyl,7.9803,49.8164,78.35,63,48,24.61,SO,1628221839
Rawson,-43.3002,-65.1023,59.02,45,100,8.39,AR,1628221840
Kidal,18.4411,1.4078,80.8,54,99,12.37,ML,1628221840
Mogadishu,2.0371,45.3438,76.35,80,50,16.46,SO,1628221840
Forsytheganj,52.6333,29.7333,62.87,97,99,11.18,BY,1628221841
Belyy Yar,53.6039,91.3903,73.29,53,0,4.47,RU,1628221841
Tyukalinsk,55.8732,72.1967,73.92,56,96,1.23,RU,1628221841
Palmer,42.1584,-72.3287,66.92,86,40,3.44,US,1628221841
Vanderhoof,54.0166,-124.0198,65.28,55,92,7.47,CA,1628221842
Durgapur,23.4833,87.3167,91.94,58,54,2.68,IN,1628221842
Rosetta,31.4044,30.4164,73.22,71,0,7.45,EG,1628221842
Kirakira,-10.4544,161.9205,82.36,63,17,7.96,SB,1628221843
Deloraine,-41.5333,146.6667,58.71,60,78,6.55,AU,1628221843
Fort-Shevchenko,44.5086,50.263,84.27,56,13,8.57,KZ,1628221843
Province of Trapani,37.8333,12.6667,77.27,83,0,3.44,IT,1628221843
San Jose,37.3394,-121.895,67.28,77,20,1.99,US,1628221592
Valdivia,-39.8142,-73.2459,50.04,99,100,1.97,CL,1628221844
Cheyenne,41.14,-104.8203,75.52,37,20,5.75,US,1628221843
Baykit,61.67,96.37,80.33,35,6,6.87,RU,1628221844
Jaguarari,-10.2639,-40.1958,62.8,96,79,8.23,BR,1628221844
Varniai,55.7406,22.3644,49.69,83,100,14.16,LT,1628221845
Jinotega,13.0917,-86.0018,65.66,97,100,3.15,NI,1628221845
Diphu,25.8333,93.4333,92.12,58,44,0.56,IN,1628221845
Arnprior,45.4334,-76.3494,72.14,73,58,4.36,CA,1628221661
Namatanai,-3.6667,152.4333,82.02,73,81,13.38,PG,1628221846
Waingapu,-9.6567,120.2641,85.39,56,43,19.86,ID,1628221846
Port-Gentil,-0.7193,8.7815,76.82,82,58,10.07,GA,1628221846
Tungor,53.3808,142.9564,57.07,82,100,13.49,RU,1628221847
Benjamin Constant,-4.3831,-70.0311,77.13,70,91,3.11,BR,1628221847
Katsuura,35.1333,140.3,91.51,72,49,8.63,JP,1628221847
Xingyi,24.1877,102.817,77.23,63,39,3.89,CN,1628221848
Kununurra,-15.7667,128.7333,78.78,14,1,12.66,AU,1628221848
Alice Springs,-23.7,133.8833,60.35,36,0,11.5,AU,1628221799
Tezu,27.9167,96.1667,94.3,51,31,3.51,IN,1628221848
Dīdwāna,27.4,74.5667,87.62,59,99,8.81,IN,1628221849
Parrita,9.5201,-84.3225,83.98,88,100,1.45,CR,1628221849
Antalaha,-14.9003,50.2788,66.96,83,32,7.38,MG,1628221849
Cauquenes,-35.9671,-72.3225,47.98,89,100,2.68,CL,1628221850
Naze,28.3667,129.4833,85.12,83,41,20.15,JP,1628221850
Eunice,30.4944,-92.4176,76.96,74,96,4.65,US,1628221850
Port Keats,-14.25,129.55,86.79,18,35,11.68,AU,1628221850
Adrar,20.5022,-10.0711,89.33,19,74,8.5,MR,1628221851
Bima,-8.4667,118.7167,89.38,54,92,2.42,ID,1628221851
Berea,41.3662,-81.8543,69.22,79,20,5.75,US,1628221793
Taman',45.2117,36.7161,79.12,61,0,8.97,RU,1628221851
Onguday,50.75,86.15,63.39,70,95,1.66,RU,1628221852
Bacolod City,10.6667,122.95,85.93,70,99,14.58,PH,1628221852
Melilla,35.2937,-2.9383,71.98,73,0,0.0,ES,1628221852
Angoche,-16.2325,39.9086,69.37,83,8,2.1,MZ,1628221853
Husavik,66.0449,-17.3389,53.51,89,63,2.77,IS,1628221853
Sioux Lookout,50.1001,-91.917,59.38,94,90,6.91,CA,1628221584
Lagoa,39.05,-27.9833,72.3,90,24,19.3,PT,1628221853
Catió,11.2833,-15.25,76.42,87,100,11.9,GW,1628221854
Uíge,-7.6087,15.0613,63.66,96,40,2.64,AO,1628221854
Mīzan Teferī,6.9833,35.5833,59.22,92,95,2.86,ET,1628221854
Düzce,40.8389,31.1639,75.97,42,0,5.84,TR,1628221855
Nāndūra Buzurg,20.8333,76.45,84.65,63,97,16.06,IN,1628221855
Moranbah,-22.0016,148.0466,70.56,26,100,16.08,AU,1628221855
Marzuq,14.4,46.4667,82.35,48,96,6.44,YE,1628221855
Deniliquin,-35.5333,144.9667,57.0,55,92,12.3,AU,1628221856
Nouadhibou,20.931,-17.0347,69.78,88,0,18.41,MR,1628221856
Batemans Bay,-35.7167,150.1833,69.19,47,0,7.2,AU,1628221856
Boende,-0.2167,20.8667,71.94,88,94,5.06,CD,1628221740
Mtwara,-10.2667,40.1833,67.33,100,20,11.5,TZ,1628221857
Pavlohrad,48.5167,35.8667,67.15,58,54,4.12,UA,1628221857
Moose Factory,51.2585,-80.6094,51.8,93,90,6.91,CA,1628221857
Wanxian,30.8039,108.3897,93.34,62,62,2.01,CN,1628221724
Te Anau,-45.4167,167.7167,46.87,86,41,1.63,NZ,1628221858
Oussouye,12.485,-16.5469,75.38,89,96,10.22,SN,1628221858
Fort Collins,40.5853,-105.0844,79.41,46,1,1.01,US,1628221858
Mangan,27.5167,88.5333,87.08,62,100,6.38,IN,1628221859
Fort Nelson,58.8053,-122.7002,63.99,88,75,5.75,CA,1628221649
Yuancheng,36.652,107.7896,84.16,30,100,6.04,CN,1628221859
